{"type":"FeatureCollection","features":[{"type":"Feature","geometry":{"type":"Point","coordinates":[1.5212416648864675,42.50693894939296]},"properties":{"capital":2,"ldir":"E","localrank":1,"name":"Andorra la Vella","name_de":"Andorra la Vella","name_en":"Andorra la Vella","name_es":"Andorra la Vieja","name_fr":"Andorre-la-Vieille","osm_id":-58957648,"type":"town"}},{"type":"Feature","geometry":{"type":"Point","coordinates":[1.54040336608886,42.50900322950511]},"properties":{"ldir":"W","localrank":1,"name":"les Escaldes","name_de":"les Escaldes","name_en":"les Escaldes","name_es":"les Escaldes","name_fr":"les Escaldes","osm_id":-64954589,"type":"town"}},{"type":"Feature","geometry":{"type":"Point","coordinates":[1.491394042968743,42.48701237430469]},"properties":{"ldir":"","localrank":1,"name":"la Margineda","name_de":"la Margineda","name_en":"la Margineda","name_es":"la Margineda","name_fr":"la Margineda","osm_id":-2125770584,"scalerank":0,"type":"village"}},{"type":"Feature","geometry":{"type":"Point","coordinates":[1.5592324733734055,42.510513828076334]},"properties":{"ldir":"","localrank":2,"name":"Engolasters","name_de":"Engolasters","name_en":"Engolasters","name_es":"Engolasters","name_fr":"Engolasters","osm_id":-2125730238,"scalerank":0,"type":"village"}},{"type":"Feature","geometry":{"type":"Point","coordinates":[1.5080773830413743,42.476006133494025]},"properties":{"ldir":"","localrank":1,"name":"Certers","name_de":"Certers","name_en":"Certers","name_es":"Certers","name_fr":"Certers","osm_id":-64954598,"scalerank":0,"type":"village"}},{"type":"Feature","geometry":{"type":"Point","coordinates":[1.51168227195739,42.47278539353596]},"properties":{"ldir":"","localrank":2,"name":"Llumeneres","name_de":"Llumeneres","name_en":"Llumeneres","name_es":"Llumeneres","name_fr":"Llumeneres","osm_id":-64954554,"scalerank":0,"type":"village"}},{"type":"Feature","geometry":{"type":"Point","coordinates":[1.4914584159850999,42.47653631312672]},"properties":{"ldir":"","localrank":2,"name":"Aixovall","name_de":"Aixovall","name_en":"Aixovall","name_es":"Aixovall","name_fr":"Aixovall","osm_id":-64954525,"scalerank":0,"type":"village"}},{"type":"Feature","geometry":{"type":"Point","coordinates":[1.5059638023376394,42.49836473467724]},"properties":{"ldir":"","localrank":1,"name":"Santa Coloma","name_de":"Santa Coloma","name_en":"Santa Coloma","name_es":"Santa Coloma","name_fr":"Santa Coloma","osm_id":-64954512,"scalerank":0,"type":"village"}},{"type":"Feature","geometry":{"type":"Point","coordinates":[1.5382039546966477,42.51353491569727]},"properties":{"ldir":"","localrank":3,"name":"Engordany","name_de":"Engordany","name_en":"Engordany","name_es":"Engordany","name_fr":"Engordany","osm_id":-64954477,"scalerank":0,"type":"village"}},{"type":"Feature","geometry":{"type":"Point","coordinates":[1.5156304836273122,42.53387204953304]},"properties":{"ldir":"","localrank":1,"name":"Sispony","name_de":"Sispony","name_en":"Sispony","name_es":"Sispony","name_fr":"Sispony","osm_id":-64954415,"scalerank":0,"type":"hamlet"}},{"type":"Feature","geometry":{"type":"Point","coordinates":[1.541379690170281,42.516824729829324]},"properties":{"ldir":"","localrank":4,"name":"els Vilars","name_de":"els Vilars","name_en":"els Vilars","name_es":"els Vilars","name_fr":"els Vilars","osm_id":-64954396,"scalerank":0,"type":"hamlet"}},{"type":"Feature","geometry":{"type":"Point","coordinates":[1.5254795551299978,42.53436220976737]},"properties":{"ldir":"","localrank":1,"name":"Anyós","name_de":"Anyós","name_en":"Anyós","name_es":"Anyós","name_fr":"Anyós","osm_id":-64954389,"scalerank":0,"type":"hamlet"}},{"type":"Feature","geometry":{"type":"Point","coordinates":[1.533536911010735,42.50965967211288]},"properties":{"ldir":"","localrank":2,"name":"Centre històric","name_de":"Centre històric","name_en":"Centre històric","name_es":"Centre històric","name_fr":"Centre històric","osm_id":-2125755654,"scalerank":0,"type":"neighbourhood"}}],"name":"place_label"}