{"type":"FeatureCollection","features":[{"type":"Feature","geometry":{"type":"Point","coordinates":[1.521247029304513,42.50693894939296]},"properties":{"capital":2,"ldir":"E","localrank":1,"name":"Andorra la Vella","name_de":"Andorra la Vella","name_en":"Andorra la Vella","name_es":"Andorra la Vieja","name_fr":"Andorre-la-Vieille","osm_id":-58957648,"type":"town"}},{"type":"Feature","geometry":{"type":"Point","coordinates":[1.5404087305069056,42.50900322950511]},"properties":{"ldir":"W","localrank":1,"name":"les Escaldes","name_de":"les Escaldes","name_en":"les Escaldes","name_es":"les Escaldes","name_fr":"les Escaldes","osm_id":-64954589,"type":"town"}},{"type":"Feature","geometry":{"type":"Point","coordinates":[1.5059584379196254,42.49836868984438]},"properties":{"ldir":"","localrank":1,"name":"Santa Coloma","name_de":"Santa Coloma","name_en":"Santa Coloma","name_es":"Santa Coloma","name_fr":"Santa Coloma","osm_id":-64954512,"scalerank":0,"type":"village"}},{"type":"Feature","geometry":{"type":"Point","coordinates":[1.5382093191146937,42.51353886990476]},"properties":{"ldir":"","localrank":1,"name":"Engordany","name_de":"Engordany","name_en":"Engordany","name_es":"Engordany","name_fr":"Engordany","osm_id":-64954477,"scalerank":0,"type":"village"}},{"type":"Feature","geometry":{"type":"Point","coordinates":[1.5413850545883265,42.51682868382865]},"properties":{"ldir":"","localrank":2,"name":"els Vilars","name_de":"els Vilars","name_en":"els Vilars","name_es":"els Vilars","name_fr":"els Vilars","osm_id":-64954396,"scalerank":0,"type":"hamlet"}},{"type":"Feature","geometry":{"type":"Point","coordinates":[1.5335369110107508,42.50965571765999]},"properties":{"ldir":"","localrank":1,"name":"Centre històric","name_de":"Centre històric","name_en":"Centre històric","name_es":"Centre històric","name_fr":"Centre històric","osm_id":-2125755654,"scalerank":0,"type":"neighbourhood"}}],"name":"place_label"}